 [
  {
  "type": "自助,火锅",
  "name": "五彩楼",
  "imageURL": "http://live.xineurope.com/uploads/pictures/2012-09/thumb_48_1347054152.jpg",
  "information": "wucailou§3号线 - République",
  "latitude": "48.8686082",
  "telephone": "01.53.72.90.16",
  "xineuropeURL": "http://live.xineurope.com/item.php?act=detail&id=1899",
  "longitude": "2.360009",
  "businessHours": "11h45—15h00 供应自助餐(Wok)19h00—凌晨 和 周六周日中午 供应火锅/烧烤（任选一）+ wok 自助 周一和周二中午休息",
  "address": "48, Rue René Boulanger, 75010, Paris"
  },
  {
  "type": "山西菜,KTV",
  "name": "山西饭店",
  "imageURL": "http://live.xineurope.com/uploads/pictures/2012-03/thumb_36_1332881929.jpg",
  "information": "shanxifandian§7号线 - Cadet",
  "latitude": "48.8764808",
  "telephone": "09.52.67.26.57",
  "xineuropeURL": "http://live.xineurope.com/item.php?act=detail&id=3132",
  "longitude": "2.3418723",
  "businessHours": "12时至15时，19时-23时，周一全天休息 周日中午照常营业",
  "address": "17,Rue Lamartine, 75009, Paris"
  },
  {
  "type": "韩餐",
  "name": "毛家小馆",
  "imageURL": "http://live.xineurope.com/uploads/pictures/2012-04/thumb_2_1334941237.jpg",
  "information": "maojiaxiaoguan§9号线 - République",
  "latitude": "48.8686134",
  "telephone": "01 40 18 38 33",
  "xineuropeURL": "http://live.xineurope.com/item.php?act=detail&id=3114",
  "longitude": "2.3580582",
  "businessHours": "周一到周日全天营业.中午12：00 — 14：00 ，晚上19:00 — 22:30（周一至周日）",
  "address": "6 Boulevard Saint-Martin, 75010 Paris"
  },
  {
  "type": "饺子,山东菜",
  "name": "饺子王",
  "imageURL": "http://live.xineurope.com/uploads/pictures/2012-12/thumb_35_1355851328.jpg",
  "information": "jiaoziwang§7号线 - Les Gobelins",
  "latitude": "48.8374065",
  "telephone": "01 43 31 36 70",
  "xineuropeURL": "http://live.xineurope.com/item.php?act=detail&id=3765",
  "longitude": "2.3511733",
  "businessHours": "12h-15h,19h-23h",
  "address": "18,av des gobleins 75005 Paris"
  },
  {
  "type": "烤鸭,东北菜",
  "name": "东北人家",
  "imageURL": "http://live.xineurope.com/uploads/pictures/2012-09/thumb_76_1347918085.jpg",
  "information": "dongbeirenjia§7号线 - Cadet",
  "latitude": "48.8757985",
  "telephone": "01 48 00 01 68",
  "xineuropeURL": "http://live.xineurope.com/item.php?act=detail&id=3318",
  "longitude": "2.3457056",
  "businessHours": "12h-14h30&19h-12h",
  "address": "44 Rue Trévise 75009 Paris"
  },
  {
  "type": "自助,火锅,川菜",
  "name": "莫言老家",
  "imageURL": "http://live.xineurope.com/uploads/pictures/2012-11/thumb_18_1353112599.jpg",
  "information": "moyanlaojia§7号线 - Villejuif — Paul Vaillant-Couturier Hôpital Paul Brousse",
  "latitude": "48.7926035",
  "telephone": "01 46 70 39 72",
  "xineuropeURL": "http://live.xineurope.com/item.php?act=detail&id=3722",
  "longitude": "2.3648547",
  "businessHours": "12h-15h， 18h30-23h， 周日早上休息  （注意： 周一至周五中午，不供应自助火锅）",
  "address": "17 RUE GEORGES LE BIGOT, 94800 VILLEJUIF"
  },
  {
  "type": "川菜",
  "name": "天天旺川菜馆",
  "imageURL": "http://live.xineurope.com/uploads/pictures/2012-03/thumb_94_1331666662.jpg",
  "information": "tiantianwang§7号线 - Porte de Choisy",
  "latitude": "48.8244652",
  "telephone": "09 51 84 60 88",
  "xineuropeURL": "http://live.xineurope.com/item.php?act=detail&id=611",
  "longitude": "2.3622436",
  "businessHours": "12h-14h30,19h-2h",
  "address": "82,Rue Baudricourt,75013 Paris"
  },
  {
  "type": "川菜,烤鸭",
  "name": "京品堂",
  "imageURL": "http://live.xineurope.com/uploads/pictures/2012-09/thumb_44_1347062047.jpg",
  "information": "jpt",
  "latitude": "48.8295449",
  "telephone": "01 45 40 88 03",
  "xineuropeURL": "http://live.xineurope.com/item.php?act=detail&id=2902",
  "longitude": "2.3176291",
  "businessHours": "周二至周日 12h-14h30  19h-23h 周一全天休息",
  "address": "62 rue Didot 75014 Paris"
  },
  {
  "type": "川菜,湘菜",
  "name": "福来居",
  "imageURL": "http://live.xineurope.com/uploads/pictures/2012-04/thumb_67_1334872015.jpg",
  "information": "fulaiju§1号线 - Hôtel de Ville",
  "latitude": "48.8575004",
  "telephone": "01 44 59 37 68",
  "xineuropeURL": "http://live.xineurope.com/item.php?act=detail&id=609",
  "longitude": "2.3499899",
  "businessHours": "12h-14h30,18h30-22h30",
  "address": "8,Rue de la Tacherie,75004 Paris"
  },
  {
  "type": "东北菜,川菜",
  "name": "串门儿",
  "imageURL": "http://live.xineurope.com/uploads/pictures/2013-01/thumb_36_1359498043.jpg",
  "information": "chuanmener§7号线 - Châtelet",
  "latitude": "48.8588109",
  "telephone": "01 40 26 31 30",
  "xineuropeURL": "http://live.xineurope.com/item.php?act=detail&id=3813",
  "longitude": "2.3449501",
  "businessHours": "11h-15h,18h-23h",
  "address": "14，RUE BERTIN POIREE 75001 PARIS"
  },
  {
  "type": "私房菜",
  "name": "鼎鼎香私房菜馆",
  "imageURL": "http://live.xineurope.com/uploads/pictures/2012-12/thumb_27_1354569823.jpg",
  "information": "dingdingxiang§7号线 - Maison Blanche",
  "latitude": "48.8239089",
  "telephone": "01 45 65 17 88",
  "xineuropeURL": "http://live.xineurope.com/item.php?act=detail&id=533",
  "longitude": "2.3510409",
  "businessHours": "12:00-14:30, 19:00-23:00",
  "address": "72,Rue de la Colonie,75013 Paris"
  },
  {
  "type": "快餐,烧烤",
  "name": "中华快餐烧烤",
  "imageURL": "http://live.xineurope.com/uploads/pictures/2012-09/thumb_23_1347484684.jpg",
  "information": "zhonghuakuaican§9号线 - Bonne Nouvelle",
  "latitude": "48.870471",
  "telephone": "01 48 00 83 99",
  "xineuropeURL": "http://live.xineurope.com/item.php?act=detail&id=2947",
  "longitude": "2.3515541",
  "businessHours": "12H-15H，18h-23h30",
  "address": "8 rue de mazagran ，75010 Paris"
  },
  {
  "type": "火锅,炒菜",
  "name": "锅色天香",
  "imageURL": "http://live.xineurope.com/uploads/pictures/2010-08/thumb_52_1281556139.jpg",
  "information": "guosetianxiang§9号线 - charonne",
  "latitude": "48.8543125",
  "telephone": "01 43 72 19 08",
  "xineuropeURL": "http://live.xineurope.com/item.php?act=detail&id=2060",
  "longitude": "2.3835693",
  "businessHours": "12:00-14:30，18:00-23:00",
  "address": "97 Rue de charonne，75011 paris"
  },
  {
  "type": "湘菜",
  "name": "福源丰湘菜馆",
  "imageURL": "http://live.xineurope.com/uploads/pictures/2013-03/thumb_45_1362764784.jpg",
  "information": "fuyuanju§7号线 - Cadet",
  "latitude": "48.8740263",
  "telephone": "01 48 00 07 73",
  "xineuropeURL": "http://live.xineurope.com/item.php?act=detail&id=517",
  "longitude": "2.3453489",
  "businessHours": "12:00 - 14:30  19:00 - 22:30",
  "address": "22,Rue de Trévise,75009 Paris"
  },
  {
  "type": "火锅",
  "name": "一品火锅城",
  "imageURL": "http://live.xineurope.com/uploads/pictures/2012-04/thumb_93_1334079174.jpg",
  "information": "yipinhuoguocheng§3号线 - République",
  "latitude": "48.8684326",
  "telephone": "01 40 18 98 80",
  "xineuropeURL": "http://live.xineurope.com/item.php?act=detail&id=667",
  "longitude": "2.3622507",
  "businessHours": "11H30-15H30, 18H30-2点",
  "address": "24,Rue René Boulanger,75010 Paris"
  },
  {
  "type": "山东菜",
  "name": "山东小馆",
  "imageURL": "http://live.xineurope.com/uploads/pictures/2012-04/thumb_47_1334871014.jpg",
  "information": "shandongxiaoguan§5号线 - Campo-Formio",
  "latitude": "48.830759",
  "telephone": "01 45 87 23 37",
  "xineuropeURL": "http://live.xineurope.com/item.php?act=detail&id=532",
  "longitude": "2.359204",
  "businessHours": "12:00-15:00，18:30-23:00，周三休息",
  "address": "88,Bd de l'Hôpitale,75013 Paris"
  },
  {
  "type": "自助,火锅",
  "name": "香飘飘",
  "imageURL": "http://live.xineurope.com/uploads/pictures/2011-01/thumb_92_1295651742.jpg",
  "information": "xiangpiaopiao§7号线 - Cadet",
  "latitude": "48.8740782",
  "telephone": "01 47 70 17 17",
  "xineuropeURL": "http://live.xineurope.com/item.php?act=detail&id=2665",
  "longitude": "2.3439674",
  "businessHours": "11h30-15h,19h-凌晨  ",
  "address": "42 rue richer 75009 paris"
  },
  {
  "type": "川菜",
  "name": "绝代双椒",
  "imageURL": "http://live.xineurope.com/uploads/pictures/2012-04/thumb_55_1334871403.jpg",
  "information": "juedaishuangjiao§8号线 - Saint-Sébastien — Froissart",
  "latitude": "48.8615568",
  "telephone": "01 58 30 99 35",
  "xineuropeURL": "http://live.xineurope.com/item.php?act=detail&id=668",
  "longitude": "2.370674",
  "businessHours": "12:00-14:00 19:00-22:30",
  "address": "33, Rue St-sebastien,75011 Paris"
  },
  {
  "type": "川菜",
  "name": "俊来饭庄",
  "imageURL": "http://live.xineurope.com/uploads/pictures/2012-04/thumb_3_1334869005.jpg",
  "information": "junlaifanzhuang§2号线 - Courcelles",
  "latitude": "48.8815508",
  "telephone": "01 48 88 98 88",
  "xineuropeURL": "http://live.xineurope.com/item.php?act=detail&id=514",
  "longitude": "2.3031386",
  "businessHours": "12:00 - 14:30，19:00 - 22:30.",
  "address": "9,Rue Barye,75017 Paris"
  },
  {
  "type": "川菜,粤菜,ktv",
  "name": "紫荆轩",
  "imageURL": "http://live.xineurope.com/uploads/pictures/2013-03/thumb_44_1362692811.jpg",
  "information": "zijinxuan§1号线 - La Défense Grande Arche",
  "latitude": "48.8902799",
  "telephone": "01 46 98 07 81",
  "xineuropeURL": "http://live.xineurope.com/item.php?act=detail&id=555",
  "longitude": "2.246095",
  "businessHours": "12h-15h30，18h30-01h00（周六，周日中午休息）",
  "address": "15, Place des Corolles,92400 Courbevoie"
  },
  {
  "type": "自助,烧烤",
  "name": "三千里韩式自助烧烤",
  "imageURL": "http://live.xineurope.com/uploads/pictures/2012-05/thumb_67_1337029901.jpg",
  "information": "sanqianlihanshizizhushaokao§3号线 - Parmentier",
  "latitude": "48.8667846",
  "telephone": "09 51 88 58 88",
  "xineuropeURL": "http://live.xineurope.com/item.php?act=detail&id=3115",
  "longitude": "2.3730873",
  "businessHours": "11h30-14h30,18h-23h",
  "address": "10 Rue des trois bornes 75011 PARIS"
  },
  {
  "type": "火锅,卤味,干锅",
  "name": "美食美客",
  "imageURL": "http://live.xineurope.com/uploads/pictures/2010-08/thumb_15_1281455490.jpg",
  "information": "meishimeike§3号线 - République",
  "latitude": "48.8642354",
  "telephone": "01 44 78 91 83",
  "xineuropeURL": "http://live.xineurope.com/item.php?act=detail&id=2046",
  "longitude": "2.3657965",
  "businessHours": "12h00—14h30，19h00—23h00周一休息",
  "address": "17 boulvard du temple，75003 Paris"
  },
  {
  "type": "拉面,饺子",
  "name": "熊猫花园",
  "imageURL": "http://live.xineurope.com/uploads/pictures/2010-12/thumb_100_1292294439.jpg",
  "information": "xiongmaohuayuan§10号线 - Duroc",
  "latitude": "48.8461648",
  "telephone": "01 43 06 02 62",
  "xineuropeURL": "http://live.xineurope.com/item.php?act=detail&id=2623",
  "longitude": "2.3194317",
  "businessHours": "周日周一中午休息",
  "address": "22 Rue Mayet, 75006 paris"
  },
  {
  "type": "川菜",
  "name": "新俏江南",
  "imageURL": "http://live.xineurope.com/uploads/pictures/2012-10/thumb_50_1350337224.jpg",
  "information": "xinqiaojiangnan§7号线 - Chaussée d'Antin — La Fayette",
  "latitude": "48.8741771",
  "telephone": "01 48 74 13 40",
  "xineuropeURL": "http://live.xineurope.com/item.php?act=detail&id=2417",
  "longitude": "2.3371565",
  "businessHours": "电话咨询",
  "address": "43，rue de provence.75009 paris"
  },
  {
  "type": "火锅,面,串烧",
  "name": "海记火锅",
  "imageURL": "http://live.xineurope.com/uploads/pictures/2012-11/thumb_16_1352505925.jpg",
  "information": "haijihuoguo§7号线 - Place d'Italie",
  "latitude": "48.8338743",
  "telephone": "01 43 36 24 50",
  "xineuropeURL": "http://live.xineurope.com/item.php?act=detail&id=3712",
  "longitude": "2.3551698",
  "businessHours": "11h-15h，18h-23h  周二休息",
  "address": "3 RUE VERONESE, 75013 PARIS"
  },
  {
  "type": "羊肉,瓦罐汤",
  "name": "南昌小馆",
  "imageURL": "http://live.xineurope.com/uploads/pictures/2011-06/thumb_88_1307403965.jpg",
  "information": "nanchangxiaoguan§9号线 - Charonne",
  "latitude": "48.8552893",
  "telephone": "06 51 19 99 86",
  "xineuropeURL": "http://live.xineurope.com/item.php?act=detail&id=2857",
  "longitude": "2.3878775",
  "businessHours": "星期1-星期5  12:00-23:00周末18:00-00:00",
  "address": "143 rue de charonne 75011 Paris"
  },
  {
  "type": "川菜,砂锅,麻辣烫",
  "name": "功夫砂锅",
  "imageURL": "http://live.xineurope.com/uploads/attachments/201212/20121204161203_23367.jpg",
  "information": "gongfuguan§7号线 - Cadet",
  "latitude": "48.8765485",
  "telephone": "06 60 62 89 19",
  "xineuropeURL": "http://live.xineurope.com/item.php?act=detail&id=2905",
  "longitude": "2.34068",
  "businessHours": "周日上午休息",
  "address": "33，rue Lamartine,75009 Paris"
  },
  {
  "type": "川菜,小吃",
  "name": "随意坊贱人馆",
  "imageURL": "http://live.xineurope.com/uploads/pictures/2012-05/thumb_66_1337726653.jpg",
  "information": "suiyifangjianrenguan§4号线 - Réaumur — Sébastopol",
  "latitude": "48.8658739",
  "telephone": "01 40 28 98 98",
  "xineuropeURL": "http://live.xineurope.com/item.php?act=detail&id=1982",
  "longitude": "2.3507905",
  "businessHours": "12h-15h，19h-23h30",
  "address": "162 RUE SAINT DENIS 75002 PARIS"
  },
  {
  "type": "饺子,自助,小菜",
  "name": "吉百合",
  "imageURL": "http://live.xineurope.com/uploads/pictures/2012-05/thumb_13_1338413476.jpg",
  "information": "jibaihe§12号线 - PORTE VERSAILLE",
  "latitude": "48.8316501",
  "telephone": "01 42 50 97 67",
  "xineuropeURL": "http://live.xineurope.com/item.php?act=detail&id=1578",
  "longitude": "2.2929093",
  "businessHours": "11h30-15h00，18h00-22h30",
  "address": "108 Rue Olivier de serres，75015 Paris"
  },
  {
  "type": "米线,卤味,川菜",
  "name": "滋味云南",
  "imageURL": "http://live.xineurope.com/uploads/pictures/2012-09/thumb_63_1348267802.jpg",
  "information": "ziweiyunnan§12号线 - Saint-Georges",
  "latitude": "48.8776782",
  "telephone": "09 81 41 71 66",
  "xineuropeURL": "http://live.xineurope.com/item.php?act=detail&id=2934",
  "longitude": "2.3381608",
  "businessHours": "周一到周六",
  "address": "15, rue Notre Dame de Lorette, 75009"
  },
  {
  "type": "云南菜",
  "name": "罐罐缘云南米线",
  "imageURL": "http://live.xineurope.com/uploads/pictures/2013-03/thumb_80_1362692661.jpg",
  "information": "guanguanyuanyunnanmixian§9号线 - Saint-Ambroise",
  "latitude": "48.8621957",
  "telephone": "01 43 55 09 82",
  "xineuropeURL": "http://live.xineurope.com/item.php?act=detail&id=2034",
  "longitude": "2.3740727",
  "businessHours": "周一中午休息",
  "address": "14 rue de la folie mericourt 75011Paris"
  },
  {
  "type": "东北菜,山东菜",
  "name": "青岛人家",
  "imageURL": "http://live.xineurope.com/uploads/pictures/2012-10/thumb_90_1349826294.jpg",
  "information": "qingdaorenjia§6号线 - Nation",
  "latitude": "48.8459468",
  "telephone": "01 43 07 28 98",
  "xineuropeURL": "http://live.xineurope.com/item.php?act=detail&id=1948",
  "longitude": "2.3981495",
  "businessHours": "12h-14h30，19h00–23h周日休息",
  "address": "8, rue du Bel-Air 75012 Paris"
  },
  {
  "type": "ktv,川菜",
  "name": "麻辣诱惑",
  "imageURL": "http://live.xineurope.com/uploads/pictures/2010-10/thumb_49_1286491030.jpg",
  "information": "malayouhuo§5号线 - Laumière",
  "latitude": "48.8866658",
  "telephone": "01 42 41 93 07",
  "xineuropeURL": "http://live.xineurope.com/item.php?act=detail&id=2434",
  "longitude": "2.3813961",
  "businessHours": "周一周二中午休息",
  "address": "134 RUE DE LORRAINE, 75019 PARIS"
  },
  {
  "type": "新疆菜,烧烤",
  "name": "刀郎餐厅",
  "imageURL": "http://live.xineurope.com/uploads/pictures/2012-09/thumb_25_1347653329.jpg",
  "information": "daolangcanting§10号线 - Maubert — Mutualité",
  "latitude": "48.8499558",
  "telephone": "09 83 26 88 57",
  "xineuropeURL": "http://live.xineurope.com/item.php?act=detail&id=3654",
  "longitude": " 2.3532906",
  "businessHours": "12h00-14h30,19h00-23h30",
  "address": "5 rue de poissy 75005 Paris"
  },
  {
  "type": "豆捞,火锅",
  "name": "朋友阁豆捞坊",
  "imageURL": "http://live.xineurope.com/uploads/pictures/2012-10/thumb_23_1351113008.jpg",
  "information": "pengyouge§4号线 - Porte d'Orléans Général Leclerc",
  "latitude": "48.8211428",
  "telephone": "01 49 12 16 39",
  "xineuropeURL": "http://live.xineurope.com/item.php?act=detail&id=3690",
  "longitude": "2.3126758",
  "businessHours": "12h-24h",
  "address": "55 avenue pierre brossolette92120 Montrouge"
  },
  {
  "type": "川菜,自助,烤鸭",
  "name": "稻香馆",
  "imageURL": "http://live.xineurope.com/uploads/pictures/2012-09/thumb_9_1347407736.jpg",
  "information": "daoxiangguan§3号线 - Arts et Métiers",
  "latitude": "48.8644261",
  "telephone": "01 44 61 05 94",
  "xineuropeURL": "http://live.xineurope.com/item.php?act=detail&id=3652",
  "longitude": "2.3578598",
  "businessHours": "12h00-14h30,19h30-23h30",
  "address": "15 Rue des vertus, 75003 Paris"
  },
  {
  "type": "川菜",
  "name": "有滋有味",
  "imageURL": "http://live.xineurope.com/uploads/pictures/2012-06/thumb_39_1338835460.jpg",
  "information": "youziyouwei§7号线 - Tolbiac",
  "latitude": "48.826694",
  "telephone": "01 44 97 93 31",
  "xineuropeURL": "http://live.xineurope.com/item.php?act=detail&id=3360",
  "longitude": "2.359443",
  "businessHours": "12h00--15h00 19h00--24h00每周三全天休息",
  "address": "129 bis,avenue de choisy 75013 paris , France"
  },
  {
  "type": "江浙菜,火锅",
  "name": "食里香",
  "imageURL": "http://live.xineurope.com/uploads/pictures/2012-12/thumb_80_1354657742.jpg",
  "information": "shilixiang§8号线 - Ledru-Rollin",
  "latitude": "48.8504153",
  "telephone": "01 46 28 70 88",
  "xineuropeURL": "http://live.xineurope.com/item.php?act=detail&id=3751",
  "longitude": "2.3732094",
  "businessHours": "12h-15h,18h-22h30",
  "address": "40 rue de Charenton 75012 Paris"
  },
  {
  "type": "拉面,饺子",
  "name": "面面聚到",
  "imageURL": "http://live.xineurope.com/uploads/pictures/2012-07/thumb_74_1342199319.jpg",
  "information": "mianmianjudao§4号线 - Porte d'Orléans Général Leclerc",
  "latitude": "48.8245924",
  "telephone": "09 51 77 55 08",
  "xineuropeURL": "http://live.xineurope.com/item.php?act=detail&id=3490",
  "longitude": "2.3282557",
  "businessHours": "12h00-15h,18h00-23h00周日中午休息",
  "address": "44 rue beaunier,75014 paris"
  },
  {
  "type": "日餐,烧烤",
  "name": "八旗烧烤",
  "imageURL": "http://live.xineurope.com/uploads/pictures/2012-07/thumb_90_1342122301.jpg",
  "information": "baqishaokao§8号线 - Commerce",
  "latitude": "48.8439277",
  "telephone": "01 45 31 65 33",
  "xineuropeURL": "http://live.xineurope.com/item.php?act=detail&id=3487",
  "longitude": "2.2961273",
  "businessHours": "11h15-15h00,19h-23h30",
  "address": "79 Rue de la Croix Nivert，75015 Paris"
  },
  {
  "type": "瓦罐汤,炒菜",
  "name": "江湖家常菜",
  "imageURL": "http://live.xineurope.com/uploads/pictures/2012-11/thumb_21_1354214754.jpg",
  "information": "jianghujiachangcai§2号线 - Belleville",
  "latitude": "48.871616",
  "telephone": "06 48 77 12 68",
  "xineuropeURL": "http://live.xineurope.com/item.php?act=detail&id=3345",
  "longitude": "2.3784943",
  "businessHours": "11H-14H30, 18H-23H30",
  "address": "9 rue denoyez 75020 Paris"
  },
  {
  "type": "米线,干锅",
  "name": "云南三和食府",
  "imageURL": "http://live.xineurope.com/uploads/pictures/2012-04/thumb_21_1334869776.jpg",
  "information": "yunnansanheshifu§14号线 - Saint-Lazare",
  "latitude": "48.8760767",
  "telephone": "01 48 78 24 50",
  "xineuropeURL": "http://live.xineurope.com/item.php?act=detail&id=1601",
  "longitude": "2.3277029",
  "businessHours": "11h00-15h00,18h30-22h30 周日中午休息 ",
  "address": "4 RUE DE BUDAPEST，75009 PARIS"
  },
  {
  "type": "川菜",
  "name": "川外川",
  "imageURL": "http://live.xineurope.com/uploads/pictures/2012-04/thumb_90_1334870474.jpg",
  "information": "chuanwaichuan§7号线 - Chaussée d'Antin — La Fayette",
  "latitude": "48.8746468",
  "telephone": "01 48 74 88 09",
  "xineuropeURL": "http://live.xineurope.com/item.php?act=detail&id=623",
  "longitude": "2.3309138",
  "businessHours": "周一至周五晚上17点30至凌晨，周六周日为中午12点至下午15点，晚上17点30至凌晨",
  "address": "19,Rue Joubert,75009 Paris"
  },
  {
  "type": "面食",
  "name": "活着的面条",
  "imageURL": "http://live.xineurope.com/uploads/pictures/2013-03/thumb_17_1362692400.jpg",
  "information": "huozhedemiantiao§7号线 - Le Peletier",
  "latitude": "48.8747888",
  "telephone": "01 45 23 10 21",
  "xineuropeURL": "http://live.xineurope.com/item.php?act=detail&id=534",
  "longitude": "2.3413637",
  "businessHours": "12:00-14:30，19:00-22:30，周日休息",
  "address": "46,Rue du Faubourg Montmartre,75009 Paris"
  },
  {
  "type": "饺子,炸酱面,小菜",
  "name": "溢香居",
  "imageURL": "http://live.xineurope.com/uploads/pictures/2013-03/thumb_93_1362767742.jpg",
  "information": "yixiangju§9号线 - Voltaire Léon Blum",
  "latitude": "48.8587465",
  "telephone": "01 43 67 18 81",
  "xineuropeURL": "http://live.xineurope.com/item.php?act=detail&id=519",
  "longitude": "2.3814448",
  "businessHours": "11:30--14:30（周六中午和周一中午休息）18:00--23:00",
  "address": "13, Rue Pétion. 75011 Paris"
  },
  {
  "type": "家常菜",
  "name": "家常菜馆",
  "imageURL": "http://live.xineurope.com/uploads/pictures/2012-06/thumb_51_1338837701.jpg",
  "information": "jiachangcaiguan§7号线 - Le Peletier",
  "latitude": "48.8649781",
  "telephone": "01 42 77 30 82",
  "xineuropeURL": "http://live.xineurope.com/item.php?act=detail&id=521",
  "longitude": "2.3569729",
  "businessHours": "周三中午休息 周日全天休息，12:00-14:30，18:00-22:30",
  "address": "7,Rue Volta,75003 Paris"
  },
  {
  "type": "面食,炒菜",
  "name": "海记面食",
  "imageURL": "http://live.xineurope.com/uploads/pictures/2012-05/thumb_38_1336582999.jpg",
  "information": "haijimianshi§14号线 - Olympiades",
  "latitude": "48.823928",
  "telephone": "01 44 23 85 74",
  "xineuropeURL": "http://live.xineurope.com/item.php?act=detail&id=582",
  "longitude": "2.3680444",
  "businessHours": "11:30-15:00，18:30-23:00，逢周二全天休息",
  "address": "31 Bis,Rue Nationale,75013 Paris"
  },
  {
  "type": "家常菜",
  "name": "我家小厨",
  "imageURL": "http://live.xineurope.com/uploads/pictures/2012-11/thumb_74_1352139062.jpg",
  "information": "wojiaxiaochu§7号线 - Cadet",
  "latitude": "48.8740887",
  "telephone": "01 44 83 95 51",
  "xineuropeURL": "http://live.xineurope.com/item.php?act=detail&id=1686",
  "longitude": "2.3466791",
  "businessHours": "12:00-14:30 19:00-22:30，周五-周日晚间19：00-23：30，周日中午休息",
  "address": "14, Rue Richer, 75009 Paris"
  },
  {
  "type": "川菜,羊肉串",
  "name": "佳味餐馆",
  "imageURL": "http://live.xineurope.com/uploads/pictures/2012-05/thumb_59_1336089739.jpg",
  "information": "jiaweicanguan§11号线 - Rambuteau",
  "latitude": "48.8628781",
  "telephone": "01 42 78 29 76",
  "xineuropeURL": "http://live.xineurope.com/item.php?act=detail&id=520",
  "longitude": "2.3522774",
  "businessHours": "12:00-15:00, 18:00-22:45",
  "address": "183-185,Rue Saint-Martin,75003 Paris"
  },
  {
  "type": "自助",
  "name": "华园酒家",
  "imageURL": "http://live.xineurope.com/uploads/pictures/2012-05/thumb_72_1336089980.jpg",
  "information": "huayuanjiujia§7号线 - Porte d'Ivry",
  "latitude": "48.8246836",
  "telephone": "01 45 86 24 83",
  "xineuropeURL": "http://live.xineurope.com/item.php?act=detail&id=544",
  "longitude": "2.3622532",
  "businessHours": "周日休息",
  "address": "78,Rue Baudricourt,75013,Paris"
  },
  {
  "type": "奶茶",
  "name": "珍珠茶馆",
  "imageURL": "http://live.xineurope.com/uploads/pictures/2012-07/thumb_81_1341590946.jpg",
  "information": "zhenzhuchaguan§7号线 - Pyramides",
  "latitude": "48.8677104",
  "telephone": "01 42 96 27 28",
  "xineuropeURL": "http://live.xineurope.com/item.php?act=detail&id=142",
  "longitude": "2.3370381",
  "businessHours": "请电话咨询",
  "address": "13,Rue Chabanais,75002 Paris"
  },
  {
  "type": "粤菜",
  "name": "利口福酒家",
  "imageURL": "http://live.xineurope.com/uploads/pictures/2012-05/thumb_6_1338418691.jpg",
  "information": "likoufu§7号线 - Tolbiac",
  "latitude": "48.8222647",
  "telephone": "01 45 84 20 45",
  "xineuropeURL": "http://live.xineurope.com/item.php?act=detail&id=568",
  "longitude": "2.36279",
  "businessHours": "12h-24h",
  "address": "39,Av de Choisy,75013 Paris"
  },
  {
  "type": "粤菜",
  "name": "大家乐",
  "imageURL": "http://live.xineurope.com/uploads/pictures/2012-04/thumb_61_1335210620.jpg",
  "information": "dajiale§7号线 - Tolbiac",
  "latitude": "48.826167",
  "telephone": "01 53 82 09 51",
  "xineuropeURL": "http://live.xineurope.com/item.php?act=detail&id=596",
  "longitude": "2.3599232",
  "businessHours": "12：00-15：00，19：00-02：00",
  "address": "118,Av de Choisy,75013 Paris"
  },
  {
  "type": "温州菜",
  "name": "万里香",
  "imageURL": "http://live.xineurope.com/uploads/pictures/2012-04/thumb_12_1335210367.jpg",
  "information": "wanlixiang§3号线 - Arts et Métiers",
  "latitude": "48.8647347",
  "telephone": "01 48 87 88 07",
  "xineuropeURL": "http://live.xineurope.com/item.php?act=detail&id=613",
  "longitude": "2.3556982",
  "businessHours": "请电话咨询",
  "address": "39,Rue au Maire,75003 Paris"
  },
  {
  "type": "北京菜",
  "name": "北京食堂",
  "imageURL": "http://live.xineurope.com/uploads/pictures/2013-03/thumb_51_1362531129.jpg",
  "information": "beijingshitang§9号线 - Saint-Philippe du Roule",
  "latitude": "48.8713305",
  "telephone": "01 42 56 50 86",
  "xineuropeURL": "http://live.xineurope.com/item.php?act=detail&id=2237",
  "longitude": "2.3079695",
  "businessHours": "请电话咨询",
  "address": "38 Rue de Ponthieu, 75008 Paris"
  },
  {
  "type": "自助",
  "name": "东方美食城",
  "imageURL": "http://live.xineurope.com/uploads/pictures/2009-02/g_20081127042824361.jpg",
  "information": "dongfangmeishicheng§7号线 - Le Kremlin-Bicêtre",
  "latitude": "48.8139659",
  "telephone": "01 49 60 88 88",
  "xineuropeURL": "http://live.xineurope.com/item.php?act=detail&id=666",
  "longitude": "2.3613678",
  "businessHours": "12:00-14:30 19:30-23:00 ",
  "address": "27-29, Avenue de Fontainebleau, 94270 Le Kremlin-Bicêtre"
  },
  {
  "type": "川菜",
  "name": "腾龙阁",
  "imageURL": "http://live.xineurope.com/uploads/pictures/2013-03/thumb_15_1362704186.jpg",
  "information": "tenglongge§8号线 - Commerce",
  "latitude": "48.8428874",
  "telephone": "01 45 33 45 98",
  "xineuropeURL": "http://live.xineurope.com/item.php?act=detail&id=1959",
  "longitude": "2.295039",
  "businessHours": "请电话咨询",
  "address": "118 Rue des entrepreneurs 75015 Paris"
  },
  {
  "type": "新疆菜",
  "name": "塔里木餐厅",
  "imageURL": "http://live.xineurope.com/uploads/pictures/2013-03/thumb_49_1362769014.jpg",
  "information": "talimucanting§3号线 - Parmentier",
  "latitude": "48.86727",
  "telephone": "01 43 55 04 73",
  "xineuropeURL": "http://live.xineurope.com/item.php?act=detail&id=1881",
  "longitude": "2.3758937",
  "businessHours": "12h00—14h30，18h30—23h30周末晚上需要预订",
  "address": "74，Rue Jean-Pierre Timbaud, 75011, Paris"
  },
  {
  "type": "早餐,川菜",
  "name": "食全食美",
  "imageURL": "http://live.xineurope.com/uploads/pictures/2012-05/thumb_29_1336163565.jpg",
  "information": "shiquanshimei§11号线 - Belleville",
  "latitude": "48.8733009",
  "telephone": "01 42 38 80 16",
  "xineuropeURL": "http://live.xineurope.com/item.php?act=detail&id=1670",
  "longitude": "2.3780815",
  "businessHours": "11H00至 22H00；每逢星期四休息",
  "address": "12 Rue Jules Romains. 75019 Paris"
  },
  {
  "type": "pho",
  "name": "pho大",
  "imageURL": "http://live.xineurope.com/uploads/pictures/2012-04/thumb_20_1333386342.jpg",
  "information": "pho§7号线 - Maison Blanche",
  "latitude": "48.822122",
  "telephone": "01 45 85 97 36",
  "xineuropeURL": "http://live.xineurope.com/item.php?act=detail&id=1625",
  "longitude": "2.3612878",
  "businessHours": "请电话咨询",
  "address": "13rue philibert lucot 75013 paris"
  },
  {
  "type": "北方菜,泰餐",
  "name": "吉丽雅",
  "imageURL": "http://assets3.qypecdn.net/uploads/photos/0283/3805/SNC01175_gallery2.jpg",
  "information": "jiliya§1,2,6,9号线 - Nation",
  "latitude": "48.848394",
  "telephone": "01 45 85 97 36",
  "xineuropeURL": "",
  "longitude": "2.39591",
  "businessHours": "每天11h30 - 14h30，19h - 23h，周日中午休息",
  "address": "7 avenue philippe auguste, place Nation, 75011 Paris"
  },
  {
  "type": "火锅,自助",
  "name": "一家火锅店",
  "imageURL": "https://dl.dropboxusercontent.com/u/64140421/photo/yijiahuoguo.jpeg",
  "information": "yijiahuoguodian§8,9号线 - BONNE NOUVELLE",
  "latitude": "48.8719805",
  "telephone": "09 52 16 87 78",
  "xineuropeURL": "",
  "longitude": "2.3507292",
  "businessHours": "周一至周日 中午：11：30----14：30  晚上：19：00----23：00",
  "address": "27 rue d'enghien 75010"
  },
  {
  "type": "川菜,米线,云南菜",
  "name": "滋味三合",
  "imageURL": "http://live.xineurope.com/uploads/pictures/2012-07/thumb_47_1343257368.jpg",
  "information": "ziweisanhe§12号线 - Notre-Dame-de-Lorette",
  "latitude": "48.875537",
  "telephone": "01 77 19 55 73",
  "xineuropeURL": "http://live.xineurope.com/item.php?act=detail&id=3523",
  "longitude": "2.3406412",
  "businessHours": "周三休息 （整天）周一至周日 中午 12:00-15:00 晚间 18:30-22:30",
  "address": "57 Rue du Fauboug Montmartre 75009 Paris"
  }
  ]